LoanRange,BusinessName,Address,JobsRetained,long,lat
"$150,000-350,000","ELITE SALES AND SERVICES, LLC",10069 WELLWORTH AVE,19,-118.430186,34.062883
"$150,000-350,000","PAULSETH &AMP; ASSOCIATES PHYSICAL THERAPY,",10351 SANTA MONICA BLVD STE 101,12,-118.42319,34.05844
$1-2 million,"SHOUT! FACTORY, LLC",1640 SEPULVEDA BLVD SUITE 400,77,-118.44468,34.04838
"$350,000-1 million","MOJIX, INC.","11075 Santa Monica Blvd., Suite 350",,-118.443973,34.047989
"$150,000-350,000",DATTNER DISPOTO AND ASSOCIATES,10635 SANTA MONICA BLVD,0,-118.43031,34.05353
"$150,000-350,000",MPCA ADMINISTRATION LLC,10635 SANTA MONICA BLVD Suite 180,,-118.43014,34.0538
"$350,000-1 million","LOLA VISUAL EFFECTS, LLC",10435 SANTA MONICA BLVD,49,-118.425485,34.056858
